[
  {
    "name": "Uk and Ireland",
    "webPath": "uk-ireland",
    "imagePath": "/maps/uk.png",
    "longMax": 1.9201,
    "longMin": -10.632,
    "latMax": 59.4629,
    "latMin": 49.8367,
    "countryCodes": { "whole": ["GB", "IE"] },
    "searchRadius": 1.0,
    "pointRadius": 0.9
  },
  {
    "name": "France",
    "webPath": "france",
    "imagePath": "/maps/france.png",
    "longMax": 8.30366,
    "longMin": -5.183,
    "latMax": 51.238,
    "latMin": 42.2462,
    "countryCodes": { "whole": ["FR"] },
    "searchRadius": 1.0,
    "pointRadius": 0.9
  },
  {
    "name": "Norway",
    "webPath": "norway",
    "imagePath": "/maps/norway.png",
    "longMax": 31.449,
    "longMin": 4.2616,
    "latMax": 71.3384,
    "latMin": 57.84577,
    "countryCodes": { "whole": ["NO"] },
    "searchRadius": 1.0,
    "pointRadius": 1.0
  },
  {
    "name": "Italy",
    "webPath": "italy",
    "imagePath": "/maps/italy.png",
    "longMax": 18.5895,
    "longMin": 6.4951,
    "latMax": 47.3478,
    "latMin": 36.4973,
    "countryCodes": {
      "whole": ["IT"],
      "part": [
        {
          "country": "FR",
          "admin1": [94]
        }
      ]
    },
    "searchRadius": 1.0,
    "pointRadius": 1.0
  },
  {
    "name": "The Lowlands",
    "webPath": "lowlands",
    "imagePath": "/maps/lowlands.png",
    "longMax": 7.2752,
    "longMin": 2.4895,
    "latMax": 53.6728,
    "latMin": 49.4255,
    "countryCodes": { "whole": ["NL", "BE", "LU"] },
    "searchRadius": 1.0,
    "pointRadius": 1.0
  },
  {
    "name": "Germany",
    "webPath": "germany",
    "imagePath": "/maps/germany.png",
    "longMax": 15.247,
    "longMin": 5.6944,
    "latMax": 55.1644,
    "latMin": 47.2073,
    "countryCodes": { "whole": ["DE"] },
    "searchRadius": 1.0,
    "pointRadius": 1.0
  },
  {
    "name": "Iberia",
    "webPath": "iberia",
    "imagePath": "/maps/iberia.png",
    "longMax": 4.39106,
    "longMin": -9.59654,
    "latMax": 43.9828,
    "latMin": 35.9588,
    "countryCodes": { "whole": ["ES", "PT", "AD", "GI"] },
    "searchRadius": 1.0,
    "pointRadius": 0.9
  },
  {
    "name": "Indian Subcontinent",
    "webPath": "india-region",
    "imagePath": "/maps/india.png",
    "longMax": 97.9039,
    "longMin": 67.1767,
    "latMax": 35.7319,
    "latMin": 5.2632,
    "countryCodes": { "whole": ["IN", "BD", "BT", "NP", "LK"] },
    "searchRadius": 1.0,
    "pointRadius": 0.9
  },
  {
    "name": "Egypt",
    "webPath": "egypt",
    "imagePath": "/maps/egypt.png",
    "longMax": 37.2743,
    "longMin": 24.6224,
    "latMax": 32.1793,
    "latMin": 21.7099,
    "countryCodes": { "whole": ["EG"] },
    "searchRadius": 1.0,
    "pointRadius": 1.0
  },
  {
    "name": "Japan",
    "webPath": "japan",
    "imagePath": "/maps/japan.png",
    "longMax": 150.853,
    "longMin": 128.49,
    "latMax": 46.3507,
    "latMin": 30.1351,
    "countryCodes": { "whole": ["JP"] },
    "searchRadius": 1.0,
    "pointRadius": 0.8
  },
  {
    "name": "Australia",
    "webPath": "australia",
    "imagePath": "/maps/australia.png",
    "longMax": 154.532,
    "longMin": 112.525,
    "latMax": -10.065,
    "latMin": -44.0693,
    "countryCodes": { "whole": ["AU"] },
    "searchRadius": 1.0,
    "pointRadius": 0.8
  },
  {
    "name": "Europe",
    "webPath": "europe",
    "imagePath": "/maps/europe.png",
    "longMax": 43.2722,
    "longMin": -10.8614,
    "latMax": 71.3575,
    "latMin": 29.9009,
    "countryCodes": {
      "whole": [
        "AT",
        "AX",
        "BE",
        "BG",
        "HR",
        "CY",
        "CZ",
        "DK",
        "EE",
        "FI",
        "FR",
        "DE",
        "GR",
        "HU",
        "IE",
        "IT",
        "LV",
        "LT",
        "LU",
        "MT",
        "NL",
        "PL",
        "PT",
        "RO",
        "SK",
        "SI",
        "ES",
        "SE",
        "AL",
        "AD",
        "BY",
        "BA",
        "XK",
        "LI",
        "MK",
        "MD",
        "MC",
        "ME",
        "NO",
        "RU",
        "SM",
        "RS",
        "CH",
        "TR",
        "UA",
        "GB",
        "VA",
        "DZ",
        "TN",
        "MA",
        "LY",
        "EG",
        "GE",
        "SY",
        "IL",
        "JO",
        "PS",
        "LB",
        "GI"
      ]
    },
    "searchRadius": 0.5,
    "pointRadius": 0.5
  },
  {
    "name": "USA",
    "webPath": "usa",
    "imagePath": "/maps/usa.png",
    "longMax": -65.1782,
    "longMin": -126.46133,
    "latMax": 49.3837,
    "latMin": 25.13495,
    "countryCodes": { "whole": ["US"] },
    "searchRadius": 1.0,
    "pointRadius": 0.6
  },
  {
    "name": "Greece",
    "webPath": "greece",
    "imagePath": "/maps/greece.png",
    "longMax": 28.3113,
    "longMin": 19.5714,
    "latMax": 41.8292,
    "latMin": 34.8151,
    "countryCodes": { "whole": ["GR"] },
    "searchRadius": 1.0,
    "pointRadius": 0.9
  },
  {
    "name": "Fife",
    "webPath": "fife",
    "imagePath": "/maps/fife.png",
    "longMax": -2.5785,
    "longMin": -3.8698,
    "latMax": 56.4574,
    "latMin": 56.0019,
    "countryCodes": {
      "part": [
        {
          "country": "GB",
          "admin1": ["SCT"],
          "admin2": ["V1"]
        }
      ]
    },
    "searchRadius": 1.0,
    "pointRadius": 0.9
  },
  {
    "name": "China",
    "webPath": "china",
    "imagePath": "/maps/china.png",
    "longMax": 135.1198,
    "longMin": 73.2486,
    "latMax": 54.0605,
    "latMin": 17.8161,
    "countryCodes": { "whole": ["CN"] },
    "searchRadius": 0.8,
    "pointRadius": 0.8
  },
  {
    "name": "Switzerland",
    "webPath": "switzerland",
    "imagePath": "/maps/switzerland.png",
    "longMax": 10.6092,
    "longMin": 5.9025,
    "latMax": 47.8224,
    "latMin": 45.778,
    "countryCodes": { "whole": ["CH"] },
    "searchRadius": 1.0,
    "pointRadius": 0.9
  },
  {
    "name": "Asia",
    "webPath": "asia",
    "imagePath": "/maps/asia.png",
    "longMax": 154.4726,
    "longMin": 30.6926,
    "latMax": 55.7081,
    "latMin": -11.1041,
    "countryCodes": {
      "whole": [
        "AF",
        "AM",
        "AZ",
        "BH",
        "BD",
        "BT",
        "BN",
        "KH",
        "CN",
        "GE",
        "HK",
        "IN",
        "ID",
        "IR",
        "IQ",
        "IL",
        "JP",
        "JO",
        "KP",
        "KR",
        "KW",
        "KG",
        "LA",
        "LB",
        "MO",
        "MY",
        "MN",
        "MM",
        "NP",
        "OM",
        "PK",
        "PS",
        "PG",
        "PH",
        "QA",
        "SA",
        "SG",
        "LK",
        "SY",
        "TW",
        "TJ",
        "TH",
        "TL",
        "TM",
        "AE",
        "UZ",
        "VN",
        "YE"
      ]
    },
    "searchRadius": 0.6,
    "pointRadius": 0.5
  },
  {
    "name": "Scandinavia",
    "webPath": "scandinavia",
    "imagePath": "/maps/scandinavia.png",
    "longMax": 32.8349,
    "longMin": 4.3594,
    "latMax": 71.2187,
    "latMin": 54.4244,
    "countryCodes": {
      "whole": ["NO", "FI", "SE", "AX", "DK"]
    },
    "searchRadius": 0.9,
    "pointRadius": 0.8
  },
  {
    "name": "Africa",
    "webPath": "africa",
    "imagePath": "/maps/africa.png",
    "longMax": 54.5109,
    "longMin": -19.8644,
    "latMax": 38.4013,
    "latMin": -35.7342,
    "countryCodes": {
      "whole": [
        "DZ",
        "AO",
        "BJ",
        "BW",
        "BF",
        "BI",
        "CM",
        "CV",
        "CF",
        "TD",
        "KM",
        "CG",
        "CD",
        "CI",
        "DJ",
        "EG",
        "GQ",
        "ER",
        "ET",
        "GA",
        "GM",
        "GH",
        "GN",
        "GW",
        "KE",
        "LS",
        "LR",
        "LY",
        "MG",
        "ML",
        "MW",
        "MR",
        "MU",
        "YT",
        "MA",
        "MZ",
        "NA",
        "NE",
        "NG",
        "RE",
        "RW",
        "ST",
        "SN",
        "SC",
        "SL",
        "SO",
        "ZA",
        "SS",
        "SD",
        "SZ",
        "TZ",
        "TG",
        "TN",
        "UG",
        "EH",
        "ZM",
        "ZW"
      ]
    },
    "searchRadius": 0.8,
    "pointRadius": 0.6
  },
  {
    "name": "Balkans",
    "webPath": "balkans",
    "imagePath": "/maps/balkans.png",
    "longMax": 28.7806,
    "longMin": 13.3056,
    "latMax": 47.0666,
    "latMin": 39.17712,
    "countryCodes": {
      "whole": ["SI", "RS", "AL", "ME", "MK", "HR", "BA", "BG", "XK"]
    },
    "searchRadius": 1.0,
    "pointRadius": 0.8
  }
]
